{
	"type" : "FeatureCollection",
	"name" : "UbicacionesSensores",
	"features" : [
		{
			"type" : "Feature",
			"geometry" : {
				"type" : "Point",
				"coordinates" : [ -3.6289264529049388, 42.37381534545422 ]    
			},
			"properties" : {
				"fid" : "1",
				"Elemento" : "BURGOS",
				"Direccion" : "BURGOS",
				"Municipio" : "Burgos",
				"Estado" : "EN MARCHA",
				"codigo_dea" : 878,
				"EsMunicipa" : "SÍ",
				"buffer" : 200,
				"x" : -3.6289264529049388,
				"y" : 42.37381534545422
			}
		},
		{
			"type" : "Feature",
			"geometry" : {
				"type" : "Point",
				"coordinates" : [ -5.739216773877916, 42.543215832101225 ]     
			},
			"properties" : {
				"fid" : "13",
				"Elemento" : "LEÓN",
				"Direccion" : "LEÓN",
				"Municipio" : "León",
				"Estado" : "EN MARCHA",
				"codigo_dea" : 2026,
				"EsMunicipa" : "SÍ",
				"buffer" : 200,
				"x" : -5.739216773877916,
				"y" : 42.543215832101225
			}
		},
		{
			"type" : "Feature",
			"geometry" : {
				"type" : "Point",
				"coordinates" : [ -5.720628754916835, 40.9695221504038 ]    
			},
			"properties" : {
				"fid" : "13",
				"Elemento" : "SALAMANCA",
				"Direccion" : "SALAMANCA-CETRAMESA",
				"Municipio" : "Salamanca",
				"Estado" : "EN MARCHA",
				"codigo_dea" : 2026,
				"EsMunicipa" : "NO",
				"buffer" : 200,
				"x" : -5.720628754916835,
				"y" : 40.9695221504038
			}
		},
		{
			"type" : "Feature",
			"geometry" : {
				"type" : "Point",
				"coordinates" : [ -5.736010551061636, 40.9718918810885749 ]    
			},
			"properties" : {
				"fid" : "13",
				"Elemento" : "SALAMANCA",
				"Direccion" : "SALAMANCA-ZALDESA",
				"Municipio" : "Salamanca",
				"Estado" : "EN MARCHA",
				"codigo_dea" : 2026,
				"EsMunicipa" : "NO",
				"buffer" : 200,
				"x" : -5.736010551061636,
				"y" : 40.9718918810885749
			}
		},
		{
			"type" : "Feature",
			"geometry" : {
				"type" : "Point",
				"coordinates" : [ -2.501478240246266, 43.18691629154143 ]    
			},
			"properties" : {
				"fid" : "13",
				"Elemento" : "ASCENSOR",
				"Direccion" : "ZERUKOA",
				"Municipio" : "Ermua",
				"Estado" : "EN MARCHA",
				"codigo_dea" : 2026,
				"EsMunicipa" : "NO",
				"buffer" : 200,
				"x" : -2.501478240246266,
				"y" : 43.18691629154143
			}
		},
		{
			"type" : "Feature",
			"geometry" : {
				"type" : "Point",
				"coordinates" : [ -2.5052026000556906, 43.186335753403995 ]    
			},
			"properties" : {
				"fid" : "13",
				"Elemento" : "ASCENSOR",
				"Direccion" : "CASAS NUEVAS",
				"Municipio" : "Ermua",
				"Estado" : "EN MARCHA",
				"codigo_dea" : 2026,
				"EsMunicipa" : "NO",
				"buffer" : 200,
				"x" : -2.5052026000556906,
				"y" : 43.186335753403995
			}
		},
		{
			"type" : "Feature",
			"geometry" : {
				"type" : "Point",
				"coordinates" : [ -2.5023089859014327, 43.18995800746766 ]    
			},
			"properties" : {
				"fid" : "13",
				"Elemento" : "ASCENSOR",
				"Direccion" : "ZERUKOA2",
				"Municipio" : "Ermua",
				"Estado" : "EN MARCHA",
				"codigo_dea" : 2026,
				"EsMunicipa" : "NO",
				"buffer" : 200,
				"x" : -2.5023089859014327,
				"y" : 43.18995800746766
			}
		}
		
	]
}
